,City ID,City,Country,Lat,Lon,Date (UTC),Clouds (%),Humidity (%),Max Temp (F),Wind Speed (mph)
0,245785,Abéché,TD,13.83,20.83,1599946501,57,66,81.3,16.9559770782
1,172515,Abu Samrah,SY,35.3,37.18,1599945976,0,45,76.33,14.4058697076
2,380348,Abū Zabad,SD,12.35,29.25,1599946501,47,79,75.97,15.1216893204
3,3533462,Acapulco de Juárez,MX,16.86,-99.89,1599946501,40,74,86.0,20.5127057793
4,2381972,Adrar,MR,20.5,-10.07,1599946023,47,28,93.88,30.824982076199998
5,344420,Adwa,ET,14.16,38.9,1599946502,0,73,60.96,2.9974946286
6,1512101,Agirish,RU,61.92,63.02,1599946502,48,90,44.17,17.5152111507
7,2194098,Ahipara,NZ,-35.17,173.17,1599946502,0,58,56.37,14.450608433400001
8,5856516,‘Āhuimanu,US,21.44,-157.84,1599946503,20,62,86.0,28.5209376975
9,1651810,Airai,TL,-8.93,125.41,1599946503,79,54,54.91,8.0977093698
10,601551,Akdepe,TM,42.06,59.38,1599946503,0,54,60.8,5.010737289600001
11,583811,Akhtanizovskaya,RU,45.32,37.1,1599946503,0,46,69.8,25.0089477222
12,5882953,Aklavik,CA,68.22,-135.01,1599946503,75,74,33.8,15.5019684897
13,2293107,Akoupé,CI,6.39,-3.9,1599946504,100,98,72.64,9.4175017809
14,1526619,Aktas,KZ,49.78,72.96,1599946504,0,52,32.0,15.0098425059
15,1295765,Sittwe,MM,20.15,92.9,1599946504,99,85,81.82,13.7124194577
16,5106841,Albany,US,42.6,-73.97,1599946358,84,57,73.0,13.8018969093
17,713676,Oleksandrivka,UA,46.84,32.76,1599946505,0,38,63.84,19.170544005300002
18,361058,Alexandria,EG,31.22,29.96,1599946505,0,73,78.91,16.0612025622
19,2077895,Alice Springs,AU,-23.7,133.88,1599946475,0,15,64.4,31.0263063423
20,4036284,Alofi,NU,-19.06,-169.92,1599946505,72,69,78.8,23.0180744241
21,1278969,Along,IN,28.17,94.77,1599946505,96,89,72.91,1.342161774
22,3866163,Alta Gracia,AR,-31.65,-64.43,1599946007,0,18,72.0,38.5200429138
23,3407882,Altamira,BR,-3.2,-52.21,1599946228,20,79,84.2,5.5028632734
24,1529651,Altay,CN,47.87,88.12,1599946506,0,43,46.92,11.7662848854
25,1731248,Alugan,PH,12.22,125.48,1599946506,100,85,79.36,3.8922691446
26,2079582,Alyangula,AU,-13.85,136.42,1599946506,56,100,60.8,20.110057247100002
27,1278935,Amalāpuram,IN,16.58,82.02,1599946265,50,95,76.5,7.5608446602
28,1082243,Ambilobe,MG,-13.2,49.05,1599946002,28,75,72.28,10.3122762969
29,2127202,Anadyr,RU,64.75,177.48,1599946209,40,81,46.4,55.0510020969
30,5879400,Anchorage,US,61.22,-149.9,1599946454,1,53,52.0,7.5161059344
31,3899695,Ancud,CL,-41.87,-73.82,1599946507,69,73,50.0,6.71080887
32,3163146,Andenes,NO,69.31,16.12,1599946507,99,81,46.4,25.5234430689
33,582123,Andi,RU,42.78,46.26,1599946507,0,77,51.71,3.1988188947
34,1730622,Anito,PH,12.45,125.29,1599946508,100,86,78.66,4.0488546849
35,3407194,Areia Branca,BR,-4.96,-37.14,1599946508,20,55,87.8,25.5234430689
36,3471551,Arenápolis,BR,-14.45,-56.85,1599946508,0,14,91.33,8.656943442300001
37,2127060,Arman',RU,59.7,150.17,1599946508,0,59,50.68,22.0114530936
38,3471451,Arraial do Cabo,BR,-22.97,-42.03,1599945966,0,65,78.8,38.5200429138
39,3373329,Arrifes,PT,37.77,-25.7,1599946509,75,77,69.8,15.5019684897
40,686090,Asău,RO,46.43,26.4,1599946509,0,85,57.99,6.5989620555
41,1278297,Ashoknagar,IN,24.57,77.72,1599946509,94,69,78.22,3.5567287011000004
42,359792,Aswān,EG,24.09,32.91,1599946013,0,18,89.94,21.5193271098
43,1651103,Atambua,ID,-9.11,124.89,1599946509,82,72,66.13,11.2070508129
44,2381334,Atar,MR,20.52,-13.05,1599946045,94,32,89.37,19.2600214569
45,4020109,Atuona,PF,-9.8,-139.03,1599946510,57,71,78.51,38.3858267364
46,3036016,Aurillac,FR,44.92,2.45,1599946510,13,82,57.2,7.5161059344
47,4035715,Avarua,CK,-21.21,-159.78,1599946510,0,78,80.6,15.5019684897
48,4231997,Avera,US,33.19,-82.53,1599946510,1,52,89.6,13.018969207800001
49,2219235,Ubari,LY,26.59,12.78,1599946511,0,16,88.41,34.8738367611
50,2027296,Aykhal,RU,66.0,111.5,1599946511,90,93,42.8,5.010737289600001
51,2656708,Ayr,GB,55.46,-4.63,1599946511,75,93,55.99,36.0370436319
52,1817858,Babu,CN,24.42,111.52,1599946511,100,89,72.37,9.2609162406
53,322391,Bahçe,TR,37.2,36.58,1599946511,10,69,77.0,7.5161059344
54,2177069,Ballina,AU,-28.87,153.57,1599946512,75,100,57.99,5.010737289600001
55,1106677,Bambous Virieux,MU,-20.34,57.76,1599946054,20,88,69.8,10.513600563
56,1215502,Banda Aceh,ID,5.56,95.32,1599946512,96,71,78.31,6.3528990636
57,64814,Bandarbeyla,SO,9.49,50.81,1599946512,71,70,79.97,39.0792769863
58,2038446,Baoqing,CN,46.33,132.21,1599946512,100,86,51.42,13.3097709255
59,2742416,Barcelos,PT,41.54,-8.62,1599946012,78,56,82.99,7.5161059344
60,1276988,Bargarh,IN,21.33,83.62,1599946513,95,91,77.74,9.864889038900001
61,3470709,Barra do Garças,BR,-15.89,-52.26,1599946245,0,15,85.8,5.9502505314
62,3946820,Barranca,PE,-10.75,-77.77,1599946513,20,75,62.62,19.506084448800003
63,5880054,Barrow,US,71.29,-156.79,1599946481,90,86,37.4,33.531674987100004
64,2310046,Bata,GQ,1.86,9.77,1599946513,100,88,76.28,15.412491038099999
65,2176639,Batemans Bay,AU,-35.72,150.18,1599946471,100,100,48.99,13.7124194577
66,3374083,Bathsheba,BB,13.22,-59.52,1599946514,40,78,80.6,23.0180744241
67,304183,Bayir,TR,37.27,28.22,1599946514,0,83,69.8,2.6619541851
68,1510689,Baykit,RU,61.67,96.37,1599946514,88,85,49.62,3.6462061527
69,140951,Behbahān,IR,30.6,50.24,1599946514,7,32,82.4,7.9634931924000005
70,1067565,Beloha,MG,-25.17,45.05,1599945945,22,83,68.41,29.974946286
71,4181936,Belvedere Park,US,33.75,-84.27,1599946314,90,83,86.0,13.018969207800001
72,1510377,Belyy Yar,RU,53.6,91.39,1599946515,0,85,33.8,5.010737289600001
73,1649150,Bengkulu,ID,-3.8,102.27,1599946233,65,88,74.8,10.513600563
74,3105522,Bereda,ES,43.27,-7.54,1599945996,27,100,68.0,6.71080887
75,2126710,Beringovskiy,RU,63.05,179.32,1599946515,100,85,46.89,85.51807436669999
76,780687,Berlevåg,NO,70.86,29.09,1599946515,99,79,47.3,23.6667859482
77,5282297,Bethel,US,41.37,-73.41,1599946336,1,52,69.01,15.5019684897
78,1182872,Bhag,PK,29.04,67.82,1599946292,0,37,93.63,14.9203650543
79,2026708,Bichura,RU,50.59,107.6,1599946516,99,86,44.37,10.200429482399999
80,2026696,Bikin,RU,46.82,134.26,1599946516,100,81,54.28,3.8475304188
81,2126682,Bilibino,RU,68.05,166.44,1599946516,100,53,47.84,3.8922691446
82,2446796,Bilma,NE,18.69,12.92,1599946516,0,13,93.24,12.661059401400001
83,244878,Biltine,TD,14.53,20.92,1599946517,65,51,84.49,11.9005010628
84,895061,Bindura,ZW,-17.3,31.33,1599946517,15,60,54.52,4.5633500316
85,321082,Bingöl,TR,38.88,40.49,1599946517,64,29,70.45,14.965103780100002
86,2206939,Bluff,NZ,-46.6,168.33,1599946517,100,96,46.99,2.2593056529
87,1509819,Bolotnoye,RU,55.67,84.4,1599946517,0,88,44.49,9.5964566841
88,5905393,Bonavista,CA,48.65,-53.11,1599946518,64,76,55.49,40.13063704260001
89,2291087,Bonoua,CI,5.27,-3.6,1599946518,20,94,77.0,13.018969207800001
90,2409914,Bonthe,SL,7.53,-12.51,1599946518,95,92,76.24,12.4149964095
91,3405051,Borba,BR,-4.39,-59.59,1599946518,81,46,87.06,2.5053686448000003
92,2174444,Bowen,AU,-20.02,148.23,1599946519,75,77,66.2,25.5234430689
93,2654970,Brae,GB,60.4,-1.35,1599945965,21,76,53.6,54.0443807664
94,2051523,Bratsk,RU,56.13,101.61,1599946519,100,66,50.0,15.0098425059
95,1015776,Bredasdorp,ZA,-34.53,20.04,1599945946,2,82,59.0,20.5127057793
96,3030302,Arrondissement de Bressuire,FR,46.92,-0.5,1599946519,0,70,64.0,12.4149964095
97,5110365,Broome,US,42.25,-75.83,1599946519,90,68,69.01,18.007337134500002
98,2374583,Bubaque,GW,11.28,-15.83,1599945958,100,79,79.97,7.0463493135
99,4016734,Bucerías,MX,20.75,-105.33,1599946520,40,62,87.8,18.007337134500002
100,3897774,Buin,CL,-33.73,-70.75,1599946520,0,22,69.01,15.5019684897
101,5911440,Burgeo,CA,47.62,-57.62,1599946520,5,73,56.19,36.887079422099994
102,2173125,Burnie,AU,-41.07,145.92,1599946292,1,72,50.0,11.2070508129
103,2075265,Busselton,AU,-33.65,115.33,1599946520,11,82,43.0,12.7057981272
104,2110227,Butaritari,KI,3.07,172.79,1599946520,89,71,81.68,29.08017177
105,3404558,Cabedelo,BR,-6.98,-34.83,1599945993,20,78,75.2,23.0180744241
106,3985710,Cabo San Lucas,MX,22.89,-109.91,1599946521,20,62,88.0,23.0180744241
107,3647444,Calabozo,VE,8.92,-67.43,1599946051,100,88,82.2,7.0016105877
108,3897347,Calama,CL,-22.47,-68.93,1599945955,0,7,71.6,46.528274832
109,2270385,Camacha,PT,33.08,-16.33,1599946521,40,73,71.6,2.5053686448000003
110,934649,Cap Malheureux,MU,-19.98,57.61,1599946027,0,85,68.0,15.658554030000001
111,5915327,Cap-aux-Meules,CA,47.38,-61.86,1599946414,20,72,59.0,28.5209376975
112,4149959,Cape Canaveral,US,28.41,-80.6,1599946522,40,88,81.0,43.530780203400006
113,3369157,Cape Town,ZA,-33.93,18.42,1599945948,75,87,62.01,25.5234430689
114,2074865,Carnarvon,AU,-24.87,113.63,1599946522,0,55,60.8,38.5200429138
115,3466704,Castro,BR,-24.79,-50.01,1599946522,22,44,71.56,12.2136721434
116,1717787,Catuday,PH,16.29,119.81,1599946523,99,83,80.26,15.054581231700002
117,3382160,Cayenne,GF,4.93,-52.33,1599945971,2,70,84.2,13.018969207800001
118,3531368,Celestún,MX,20.87,-90.4,1599946523,49,67,85.41,18.409985666700003
119,3624066,Celmira,PA,8.54,-82.8,1599946523,40,78,82.4,33.531674987100004
120,160677,Chake Chake,TZ,-5.25,39.77,1599946523,20,85,75.13,22.4141016258
121,5919815,Channel-Port aux Basques,CA,47.57,-59.14,1599946523,0,76,56.61,31.8763421325
122,2025630,Chara,RU,56.91,118.26,1599946524,100,75,52.18,1.4987473143
123,2171722,Charters Towers,AU,-20.1,146.27,1599946524,0,72,64.4,25.478704343100002
124,3025892,Chaumont,FR,48.12,5.13,1599946524,0,58,64.0,2.2593056529
125,2025579,Chegdomyn,RU,51.12,133.02,1599946524,24,87,51.49,1.4987473143
126,2126199,Cherskiy,RU,68.75,161.3,1599946524,0,63,47.43,10.6478167404
127,3698359,Chicama,PE,-7.84,-79.15,1599946525,8,65,66.94,21.6759126501
128,3920736,Chimoré,BO,-16.98,-65.13,1599946370,91,32,90.01,1.4540085885
129,146490,Chlórakas,CY,34.8,32.41,1599946525,40,78,77.0,15.5019684897
130,2126123,Chokurdakh,RU,70.63,147.92,1599946525,0,63,48.09,10.960987821000002
131,2192362,Christchurch,NZ,-43.53,172.63,1599946525,100,87,51.01,7.5161059344
132,2025261,Chul'man,RU,56.85,124.91,1599946525,100,89,52.25,10.2675375711
133,3443061,Chui,UY,-33.7,-53.46,1599945957,53,75,51.71,12.4149964095
134,3466165,Cidreira,BR,-30.18,-50.21,1599946019,100,96,61.25,22.4141016258
135,3530617,Cintalapa,MX,16.7,-93.73,1599946526,62,73,80.19,18.3652469409
136,2965471,Claremorris,IE,53.72,-9.0,1599946526,100,80,63.0,20.110057247100002
137,5338122,Clovis,US,36.83,-119.7,1599946526,90,34,82.4,7.5161059344
138,5924351,Clyde River,CA,70.47,-68.59,1599946040,90,68,39.2,25.5234430689
139,5924618,Cochrane,CA,51.18,-114.47,1599946526,20,59,63.0,33.531674987100004
140,3576994,Cockburn Town,TC,21.46,-71.14,1599945901,40,66,86.0,20.5127057793
141,2171099,Codrington,AU,-38.27,141.97,1599946038,45,87,45.37,15.3230135865
142,5821593,Cody,US,44.53,-109.06,1599946527,1,16,82.4,41.0254115586
143,3894426,Coyhaique,CL,-45.58,-72.07,1599946527,90,80,39.2,18.007337134500002
144,5859699,College,US,64.86,-147.8,1599946527,40,61,51.01,7.5161059344
145,3860443,Comodoro Rivadavia,AR,-45.87,-67.5,1599946378,75,26,55.4,82.5653184639
146,3893726,Constitución,CL,-35.33,-72.42,1599946528,1,72,54.75,31.6750178664
147,3893629,Coquimbo,CL,-29.95,-71.34,1599946528,0,72,59.0,25.5234430689
148,4152311,Crestview,US,30.76,-86.57,1599946528,1,52,93.2,18.007337134500002
149,3465145,Crixás,BR,-14.55,-49.97,1599946529,0,15,83.88,6.6660701442
150,4012344,Cuencamé de Ceniceros,MX,24.87,-103.7,1599946529,57,51,77.38,23.1746599644
151,1814093,Dali,CN,25.7,100.18,1599946529,100,89,63.66,5.4133858218
152,1921372,Dalianwan,CN,39.03,121.69,1599946529,2,93,66.2,9.9991052163
153,138042,Damāvand,IR,35.72,52.06,1599946529,20,27,78.01,15.5019684897
154,2031964,Darhan,MN,49.49,105.92,1599946530,100,82,46.69,9.1490694261
155,4889447,Darien,US,41.75,-87.97,1599946530,90,88,71.6,23.0180744241
156,4236895,Decatur,US,39.84,-88.95,1599946513,75,88,75.2,15.5019684897
157,5937073,Deep River,CA,46.1,-77.5,1599946530,20,63,64.4,13.018969207800001
158,317241,Demirci,TR,39.05,28.66,1599946530,64,75,63.66,8.0082319182
159,1273246,Deogarh,IN,21.53,84.73,1599946531,100,92,76.95,7.6950608376
160,1524606,Derzhavīnsk,KZ,51.1,66.32,1599946531,28,30,62.53,22.6154258919
161,1812961,Deyang,CN,31.13,104.38,1599946531,100,74,72.0,7.0016105877
162,1272970,Dhandhuka,IN,22.37,71.98,1599946531,88,77,83.53,15.457229763900001
163,1337612,Dhidhdhoo,MV,6.88,73.1,1599946531,90,79,81.84,29.6841445683
164,1507390,Dikson,RU,73.51,80.55,1599946531,98,89,44.87,50.5994988798
165,1714733,Dingle,PH,11.0,122.67,1599946000,14,89,75.65,7.247673579600001
166,1272517,Dirba,IN,30.07,75.98,1599946532,1,64,79.93,7.8069076521000005
167,160172,Dongobesh,TZ,-4.07,35.38,1599946532,34,76,55.47,25.5681817947
168,5067114,Douglas,US,41.3,-96.17,1599946532,75,56,73.99,7.5161059344
169,2191562,Dunedin,NZ,-45.87,170.5,1599946533,99,79,52.0,13.399248377100001
170,2344245,Dutse,NG,11.76,9.34,1599946370,99,73,77.7,32.5250536566
171,563708,Dzerzhinsk,RU,56.24,43.46,1599946533,53,93,48.2,9.9991052163
172,2024626,Dzhebariki-Khaya,RU,62.22,135.8,1599946533,52,73,49.03,0.2013242661
173,3529654,Dzilam González,MX,21.28,-88.93,1599946533,95,81,82.56,12.817644941700001
174,1006984,East London,ZA,-33.02,27.91,1599946006,3,36,76.33,31.5855404148
175,2024461,Ekimchan,RU,53.07,132.97,1599946534,0,84,53.67,4.496241942899999
176,3684683,El Carmen,CO,8.51,-73.45,1599946534,95,88,76.71,4.0935934107000005
177,198629,Eldoret,KE,0.52,35.27,1599946445,75,93,55.4,13.018969207800001
178,2167426,Emerald,AU,-23.53,148.17,1599946534,0,77,61.0,20.5127057793
179,1005544,Empangeni,ZA,-28.76,31.89,1599946534,2,82,65.73,30.0196850118
180,3664301,Envira,BR,-7.3,-70.22,1599946535,59,44,89.65,0.15658554030000002
181,315367,Erzurum Province,TR,40.0,41.5,1599946535,20,41,59.0,10.513600563
182,3464008,Esmeraldas,BR,-19.76,-44.31,1599946341,0,34,84.2,18.007337134500002
183,355449,Esna,EG,25.29,32.55,1599946535,0,18,88.66,22.3246241742
184,2071860,Esperance,AU,-33.87,121.9,1599946535,9,100,44.6,18.007337134500002
185,5949563,Esterhazy,CA,50.65,-102.08,1599946497,56,31,63.73,28.2301359798
186,3019441,Étaples,FR,50.52,1.63,1599946535,75,82,62.6,7.5161059344
187,5563397,Eureka,US,40.8,-124.16,1599946440,90,93,62.01,7.5161059344
188,4891382,Evanston,US,42.04,-87.69,1599946325,90,88,72.0,23.0180744241
189,5855051,‘Ewa Beach,US,21.32,-158.01,1599946536,40,58,86.0,20.5127057793
190,4034551,Faanui,PF,-16.48,-151.75,1599946536,17,78,78.53,25.5234430689
191,5861897,Fairbanks,US,64.84,-147.72,1599946487,1,70,51.01,10.513600563
192,5503914,Fallon,US,39.47,-118.78,1599946536,1,7,91.0,13.018969207800001
193,110690,Faya,SA,18.39,42.45,1599946039,1,16,71.6,14.204545441499999
194,314967,Fethiye,TR,36.62,29.12,1599946537,0,83,77.0,13.018969207800001
195,5954718,Flin Flon,CA,54.77,-101.86,1599946537,90,66,51.8,33.531674987100004
196,6255012,Flinders,AU,-34.58,150.86,1599946537,99,90,57.99,4.4515032171
197,3156980,Florø,NO,61.6,5.03,1599946538,99,81,50.0,64.5579813294
198,921889,Fomboni,KM,-12.28,43.74,1599946538,20,80,77.36,19.2600214569
199,5955902,Fort Nelson,CA,58.81,-122.7,1599946538,75,76,50.0,13.018969207800001
200,5563839,Fortuna,US,40.6,-124.16,1599946538,1,82,62.6,18.007337134500002
201,1863997,Fukuechō,JP,32.69,128.84,1599946538,89,84,75.11,47.1769863561
202,2923588,Fürstenwalde,DE,52.37,14.07,1599946539,47,67,63.0,2.2593056529
203,2457161,Gao,ML,16.64,1.64,1599946001,49,22,97.05,12.0123478773
204,3855065,General Roca,AR,-39.03,-67.58,1599946539,10,20,64.4,31.0263063423
205,1735106,George Town,MY,5.41,100.34,1599945946,40,88,77.0,2.5053686448000003
206,2070998,Geraldton,AU,-28.77,114.6,1599946539,0,93,42.8,13.018969207800001
207,1269810,Ghoti,IN,19.72,73.62,1599946539,65,99,70.79,13.8018969093
208,5826027,Gillette,US,44.29,-105.5,1599946540,1,15,78.8,18.007337134500002
209,5654391,Glendive,US,47.11,-104.71,1599946424,1,21,84.2,23.0180744241
210,2165087,Gold Coast,AU,-28.0,153.43,1599946540,75,93,63.0,7.5161059344
211,4468261,Goldsboro,US,35.38,-77.99,1599946458,90,74,78.8,10.513600563
212,2456917,Goundam,ML,16.41,-3.67,1599946540,46,47,87.33,37.423944131700004
213,2444219,Gouré,NE,13.98,10.27,1599946540,39,28,89.55,23.0180744241
214,3580279,Gouyave,GD,12.16,-61.73,1599946541,20,74,86.0,18.007337134500002
215,934479,Grand Gaube,MU,-20.01,57.66,1599946541,0,85,68.0,13.399248377100001
216,5729080,Grants Pass,US,42.44,-123.33,1599946318,90,45,73.4,6.5542233297
217,3416888,Grindavik,IS,63.84,-22.43,1599945962,75,81,48.2,15.5019684897
218,4565090,Guánica,PR,17.97,-66.91,1599946541,10,77,82.0,15.3230135865
219,3461888,Guarapari,BR,-20.67,-40.5,1599946352,16,81,79.0,24.6286685529
220,4021858,Guerrero Negro,MX,27.98,-114.06,1599946477,0,26,89.08,29.281496036100002
221,5969025,Haines Junction,CA,60.75,-137.51,1599946542,0,40,53.96,4.9436292009
222,1529484,Kumul,CN,42.8,93.45,1599946542,0,31,56.88,9.4175017809
223,4513583,Hamilton,US,39.18,-84.53,1599945987,1,69,87.01,13.018969207800001
224,779683,Hammerfest,NO,70.66,23.68,1599946542,75,81,48.2,18.007337134500002
225,335035,Harar,ET,9.31,42.13,1599946543,68,78,61.77,2.3487831045000003
226,57289,Hargeisa,SO,9.56,44.06,1599946543,36,58,73.87,32.9724409146
227,2276492,Harper,LR,4.38,-7.72,1599945990,100,90,76.53,21.161417303400004
228,2112802,Hasaki,JP,35.73,140.83,1599946543,20,94,69.8,29.773622019900003
229,779622,Havøysund,NO,71.0,24.66,1599946543,75,81,48.2,18.007337134500002
230,2036986,Hegang,CN,47.4,130.37,1599946544,100,94,50.36,9.7977809502
231,3356832,Henties Bay,NA,-22.12,14.28,1599945954,6,89,57.0,8.94774516
232,2647074,Hereford,GB,52.06,-2.71,1599946544,60,88,55.99,15.815139570300001
233,3366880,Hermanus,ZA,-34.42,19.23,1599945972,28,89,59.0,6.71080887
234,3120811,Hernani,ES,43.27,-1.98,1599946544,0,82,68.0,5.010737289600001
235,5855927,Hilo,US,19.73,-155.09,1599946544,90,62,84.2,15.5019684897
236,1176889,Hingorja,PK,27.21,68.42,1599946545,6,43,90.14,7.113457402200001
237,1282256,Hithadhoo,MV,-0.6,73.08,1599946519,25,73,81.68,16.3072655541
238,2163355,Hobart,AU,-42.88,147.33,1599946253,20,81,46.0,25.5234430689
239,2108502,Honiara,SB,-9.43,159.95,1599946246,20,78,82.4,7.5161059344
240,779554,Honningsvåg,NO,70.98,25.97,1599946545,99,77,49.41,16.7099140863
241,1269943,Hosdurga,IN,13.8,76.29,1599946545,100,89,70.07,18.857372924699998
242,708257,Hoshcha,UA,50.6,26.67,1599946545,58,85,59.18,9.5517179583
243,1806840,Huilong,CN,31.81,121.66,1599946545,39,89,75.0,16.553328546
244,2629833,Husavik,IS,66.04,-17.34,1599946546,75,86,41.0,31.0263063423
245,3415720,Hvolsvollur,IS,63.75,-20.22,1599946546,99,76,46.0,26.8208661171
246,2095925,Ialibu,PG,-6.28,143.99,1599946546,100,99,57.15,3.8922691446
247,2524533,Iglesias,IT,39.31,8.54,1599946546,20,88,71.6,5.010737289600001
248,3461425,Ilhabela,BR,-23.78,-45.36,1599946506,0,60,77.52,12.0123478773
249,3423146,Ilulissat,GL,69.22,-51.1,1599946302,26,74,33.8,7.5161059344
250,4700033,Ingleside,US,27.88,-97.21,1599946547,1,47,95.0,13.018969207800001
251,2162683,Innisfail,AU,-17.53,146.03,1599946547,76,98,60.01,8.94774516
252,159134,Inyonga,TZ,-6.72,32.07,1599946547,66,36,74.41,12.750536853
253,5983720,Iqaluit,CA,63.75,-68.51,1599945952,75,75,41.0,7.5161059344
254,2136825,Isangel,VU,-19.55,169.27,1599946445,90,73,75.2,13.018969207800001
255,3460974,Itabaiana,BR,-10.69,-37.43,1599946548,40,69,78.8,15.5019684897
256,3393692,Itarema,BR,-2.92,-39.92,1599945976,100,74,78.42,38.1845024703
257,1861280,Itoman,JP,26.12,127.67,1599946548,40,88,80.6,15.5019684897
258,4004293,Ixtapa,MX,20.7,-105.2,1599946548,40,62,87.8,18.007337134500002
259,86049,Jalu,LY,29.03,21.55,1599946549,0,25,83.3,17.5599498765
260,5122534,Jamestown,US,42.1,-79.24,1599946009,90,73,75.0,20.5127057793
261,1805733,Jinchang,CN,38.5,102.17,1599946549,100,49,61.03,18.2086614006
262,1805518,Jining,CN,35.41,116.58,1599946549,40,92,63.84,9.9096277647
263,1916249,Jinxiang,CN,22.86,115.7,1599946549,98,86,79.72,21.877236916199998
264,1805179,Jiujiang,CN,29.73,115.98,1599946550,100,79,71.38,12.9071223933
265,5554072,Juneau,US,58.3,-134.42,1599946272,20,35,57.99,18.007337134500002
266,3663693,Jutaí,BR,-5.18,-68.9,1599946550,60,54,87.84,1.0513600563
267,5847411,Kahului,US,20.89,-156.47,1599946394,20,43,89.6,51.5390121216
268,2208248,Kaitangata,NZ,-46.28,169.85,1599946551,88,81,52.0,8.94774516
269,654899,Kajaani,FI,64.23,27.73,1599946551,100,100,51.8,10.513600563
270,915471,Kalabo,ZM,-14.97,22.68,1599946551,0,29,63.07,15.0098425059
271,1242110,Kalmunai,LK,7.42,81.82,1599946551,96,77,79.99,7.4489978457
272,933692,Kang,BW,-23.68,22.79,1599946551,0,32,60.89,19.5731925375
273,3422683,Kangaatsiaq,GL,68.31,-53.46,1599946552,10,81,36.54,19.5731925375
274,1673820,Kaohsiung City,TW,22.62,120.31,1599946297,40,83,81.0,5.010737289600001
275,5848280,Kapaa,US,22.08,-159.32,1599946552,90,66,84.2,20.5127057793
276,372884,Kapoeta,SS,4.77,33.59,1599946552,91,60,79.38,11.1623120871
277,744562,Karabük,TR,41.2,32.63,1599946552,100,57,74.14,9.2609162406
278,158321,Karema,TZ,-6.82,30.44,1599946553,5,53,75.02,6.1068360717
279,552465,Kargopol',RU,61.51,38.95,1599946553,77,90,51.21,23.6667859482
280,889215,Kariba,ZW,-16.52,28.8,1599946553,0,48,67.44,11.4978525306
281,6620339,Karratha,AU,-20.74,116.85,1599946553,0,33,78.24,40.533285574800004
282,2112309,Katsuura,JP,35.13,140.3,1599946553,40,88,73.4,7.5161059344
283,1267390,Kavaratti,IN,10.57,72.64,1599945989,100,78,81.63,36.238367898
284,2094342,Kavieng,PG,-2.57,150.8,1599946555,35,76,83.61,28.8788475039
285,1504081,Kaz,RU,52.91,87.31,1599946555,0,88,37.83,7.6950608376
286,551439,Kazanskaya,RU,45.41,40.44,1599946555,0,42,68.54,27.066929109
287,1538641,Kedrovyy,RU,56.17,91.82,1599946556,0,100,33.8,5.010737289600001
288,5990669,Kelvington,CA,52.17,-103.53,1599946556,86,47,55.17,30.2210092779
289,5866063,Kenai,US,60.55,-151.26,1599946556,1,50,57.99,7.5161059344
290,5991056,Kenora,CA,49.82,-94.43,1599946557,40,63,66.2,13.018969207800001
291,2419622,Kérouané,GN,9.27,-9.02,1599946557,54,93,71.53,3.802791693
292,5554428,Ketchikan,US,55.34,-131.65,1599946281,1,67,60.8,25.5234430689
293,2022572,Khatanga,RU,71.97,102.5,1599946558,76,70,48.0,14.5624552479
294,2124611,Kholodnyy,RU,62.72,147.95,1599946558,0,54,47.03,4.250178951
295,7082481,Khuzdar,PK,27.74,66.64,1599946558,0,57,77.0,4.4067644913
296,2161515,Kiama,AU,-34.68,150.87,1599946559,98,79,57.99,7.5608446602
297,2094027,Kieta,PG,-6.22,155.63,1599946559,2,72,82.29,6.1963135233
298,2314302,Kinshasa,CD,-4.32,15.32,1599946559,17,73,77.0,15.5019684897
299,2178753,Kirakira,SB,-10.45,161.92,1599946559,41,77,82.33,20.9153543115
300,2618795,Klaksvík,FO,62.23,-6.59,1599946038,90,93,46.4,5.010737289600001
301,5866583,Saint Paul Harbor,US,57.79,-152.41,1599946560,1,38,60.8,23.0180744241
302,1259091,Kollam,IN,8.88,76.6,1599946560,40,83,78.8,11.3636363532
303,1513491,Yangi Marg`ilon,UZ,40.43,71.72,1599946560,0,51,62.6,15.5019684897
304,1578500,Kon Tum,VN,14.35,108.0,1599946560,61,93,67.98,4.0488546849
305,1502073,Krasnosel'kup,RU,65.7,82.47,1599946560,7,89,50.18,31.473693600300003
306,2012349,Krasnyy Chikoy,RU,50.36,108.75,1599946561,100,87,48.97,10.1109520308
307,650769,Kristinestad,FI,62.27,21.38,1599946561,100,79,55.27,46.5953829207
308,986717,Kruisfontein,ZA,-34.0,24.73,1599946562,91,25,72.0,6.71080887
309,1735634,Kuching,MY,1.55,110.33,1599946562,40,100,75.2,5.010737289600001
310,1337607,Kudahuvadhoo,MV,2.67,72.89,1599946018,90,77,82.26,28.1630278911
311,2068110,Kununurra,AU,-15.77,128.73,1599946562,96,88,68.0,7.5161059344
312,2057087,Kupang,ID,-10.17,123.58,1599946563,95,76,70.95,15.5019684897
313,2123979,Kuril'sk,RU,45.23,147.88,1599946563,100,67,54.68,9.4175017809
314,371745,Kutum,SD,14.2,24.67,1599946007,12,61,77.94,9.4175017809
315,2021041,Kyra,RU,49.58,111.98,1599946563,73,90,50.4,12.2136721434
316,1501000,Kyshtovka,RU,56.55,76.63,1599946563,100,85,49.98,21.1166785776
317,1527497,Kyzyl-Suu,KG,42.34,78.0,1599946564,0,67,49.21,5.2120615557
318,3911925,La Paz,BO,-16.5,-68.15,1599946554,75,37,53.6,31.0263063423
319,3695466,La Unión,PE,-5.4,-80.75,1599946564,0,54,74.12,39.4371867927
320,1733782,Labuan,MY,5.28,115.24,1599946551,20,94,75.2,15.904617021900002
321,8079926,Labuhan,ID,-6.88,112.21,1599946564,33,78,77.11,24.7628847303
322,3372964,Lagoa,PT,39.05,-27.98,1599946565,1,71,71.02,8.5674659907
323,5364271,Laguna,US,38.42,-121.42,1599946046,90,35,86.0,7.5161059344
324,189741,Lamu,KE,-2.27,40.9,1599946565,75,83,78.8,18.007337134500002
325,3175096,Laas,IT,46.62,10.7,1599946565,5,100,59.0,4.9436292009
326,4031637,Lavrentiya,RU,65.58,-171.0,1599946565,62,67,44.89,10.8044022807
327,4026082,Lázaro Cárdenas,MX,17.96,-102.2,1599946566,44,75,84.9,17.7612741426
328,3883457,Lebu,CL,-37.62,-73.65,1599946566,46,72,50.58,24.3602361981
329,1264976,Leh,IN,34.17,77.58,1599946566,0,39,51.67,7.4489978457
330,2123814,Leningradskiy,RU,69.38,178.42,1599946566,3,76,45.48,9.2609162406
331,2644605,Lerwick,GB,60.15,-1.15,1599945897,38,76,53.6,54.0443807664
332,1803886,Lianran,CN,24.92,102.48,1599946567,75,100,66.0,15.0098425059
333,927967,Lilongwe,MW,-13.97,33.79,1599946343,52,54,65.19,12.1018253289
334,535113,Lipin Bor,RU,60.26,37.98,1599946567,96,81,53.35,36.283106623799995
335,155921,Liwale,TZ,-9.77,37.93,1599946567,28,83,68.59,2.908017177
336,1637510,Loa Janan,ID,-0.58,117.09,1599946568,60,97,73.44,6.3081603377999995
337,2524371,Locri,IT,38.24,16.26,1599946568,40,73,75.99,15.5019684897
338,5367788,Lompoc,US,34.64,-120.46,1599946466,1,72,71.01,28.5209376975
339,2729907,Longyearbyen,SJ,78.22,15.64,1599946568,75,86,37.4,10.513600563
340,2092164,Lorengau,PG,-2.02,147.27,1599946568,14,73,84.07,23.912848940099998
341,2514651,Los Llanos de Aridane,ES,28.66,-17.92,1599946015,90,78,75.2,5.010737289600001
342,1802238,Loudi,CN,27.73,111.99,1599946569,100,87,69.08,7.9634931924000005
343,3355672,Lüderitz,NA,-26.65,15.16,1599946035,100,84,60.57,3.7580529672
344,674497,Lunca,RO,43.83,24.77,1599946569,5,52,69.01,14.450608433400001
345,3377301,Mabaruma,GY,8.2,-59.78,1599946569,8,86,79.5,12.303149595
346,3395981,Maceió,BR,-9.67,-35.74,1599946020,26,83,71.6,15.5019684897
347,934322,Mahébourg,MU,-20.41,57.7,1599945980,20,88,69.8,10.513600563
348,5850554,Makakilo City,US,21.35,-158.09,1599946570,40,58,86.0,20.5127057793
349,2123614,Makarov,RU,48.63,142.8,1599946570,44,64,55.27,6.7555475958
350,1282027,Malé,MV,4.17,73.51,1599946570,75,88,82.4,31.0263063423
351,1263968,Manali,IN,13.17,80.27,1599946570,75,94,77.0,10.513600563
352,3675504,Manaure,CO,11.78,-72.44,1599946571,75,70,89.6,23.0180744241
353,2067119,Mandurah,AU,-32.55,115.7,1599946571,0,81,48.0,16.8664996266
354,1636426,Manggar,ID,-2.88,108.27,1599946571,100,80,79.52,16.463851094400002
355,3421982,Maniitsoq,GL,65.42,-52.9,1599946571,0,69,39.87,5.5476019992
356,6065262,Maniwaki,CA,46.38,-75.97,1599946571,88,69,60.12,11.9005010628
357,1636308,Manokwari,ID,-0.87,134.08,1599946572,100,76,80.38,11.3636363532
358,3654410,Manta,EC,-0.95,-80.73,1599946526,75,78,80.6,38.5200429138
359,3174050,Province of Mantua,IT,45.17,10.78,1599946572,31,83,72.0,13.018969207800001
360,3430863,Mar del Plata,AR,-38.0,-57.56,1599946572,0,41,61.0,33.531674987100004
361,1701054,Marawi,PH,8.0,124.29,1599946572,100,91,75.0,13.399248377100001
362,2158767,Mareeba,AU,-17.0,145.43,1599946573,85,91,66.99,11.2070508129
363,2643044,Margate,GB,51.38,1.39,1599945987,15,64,62.01,11.2070508129
364,3547600,Mariel,CU,22.99,-82.75,1599946573,75,78,86.0,13.018969207800001
365,3355595,Mariental,NA,-24.63,17.97,1599946573,21,25,68.94,12.8623836675
366,2995642,Marmande,FR,44.5,0.17,1599946573,40,60,71.01,11.9005010628
367,5000950,Marquette,US,46.53,-87.63,1599946574,100,91,61.0,6.71080887
368,3571913,Marsh Harbour,BS,26.54,-77.06,1599946523,100,76,83.34,30.0644237376
369,1235846,Matara,LK,5.95,80.54,1599946574,100,90,76.98,20.557444505099998
370,6201424,Mataura,NZ,-46.19,168.86,1599946574,97,96,46.99,2.2593056529
371,4362001,Mayo,US,38.89,-76.51,1599946574,40,64,75.0,18.007337134500002
372,778707,Mehamn,NO,71.04,27.85,1599946575,100,80,46.62,21.161417303400004
373,257122,Methóni,GR,36.82,21.7,1599946575,0,78,77.0,13.6005726432
374,2186895,Methven,NZ,-43.63,171.65,1599946575,100,51,54.0,18.6113099328
375,1635283,Metro,ID,-5.11,105.31,1599946575,30,93,73.96,13.6005726432
376,616416,Metsavan,AM,41.2,44.23,1599946576,0,62,59.0,2.5053686448000003
377,1214488,Meulaboh,ID,4.14,96.13,1599946576,97,84,75.47,10.1109520308
378,527321,Mezen',RU,65.85,44.24,1599946047,6,94,43.47,18.1639226748
379,1059051,Miandrivazo,MG,-19.52,45.47,1599946576,7,62,76.6,11.2070508129
380,153871,Mikumi,TZ,-7.4,36.98,1599946576,7,80,68.81,8.1648174585
381,3374462,Mindelo,CV,16.89,-24.98,1599946577,75,88,80.6,31.0263063423
382,921786,Mitsamiouli,KM,-11.38,43.28,1599946577,0,77,77.56,11.1175733613
383,3674676,Mitú,CO,1.2,-70.17,1599946577,99,79,78.85,3.1540801688999998
384,2214827,Mizdah,LY,31.45,12.98,1599946578,0,69,75.02,18.8126341989
385,4034188,Moerai,PF,-22.43,-151.33,1599946578,4,82,74.07,27.8274874476
386,2274895,Monrovia,LR,6.3,-10.8,1599945994,98,88,77.61,20.557444505099998
387,5374376,Monterey,US,36.25,-121.25,1599946578,1,60,91.99,33.531674987100004
388,3489440,Morant Bay,JM,17.88,-76.41,1599946579,40,70,87.8,28.5209376975
389,3172617,Morbegno,IT,46.14,9.57,1599946579,58,91,72.0,2.2593056529
390,4301317,Morehead,US,37.27,-87.18,1599946579,90,100,78.8,10.513600563
391,2991477,Arrondissement de Moulins,FR,46.5,3.33,1599946579,0,59,62.6,1.5434860401
392,2156643,Mount Gambier,AU,-37.83,140.77,1599946579,35,93,42.8,13.018969207800001
393,2065594,Mount Isa,AU,-20.73,139.5,1599946580,11,51,60.8,18.007337134500002
394,3879200,Mulchén,CL,-37.72,-72.23,1599946580,75,82,55.4,12.1018253289
395,1218612,Murgab,TM,37.5,61.97,1599946580,0,51,62.6,10.513600563
396,902620,Mwinilunga,ZM,-11.74,24.43,1599946003,0,34,59.99,8.2095561843
397,1634614,Nabire,ID,-3.37,135.48,1599946581,100,92,75.63,3.5119899753
398,1498087,Nadym,RU,65.53,72.52,1599946581,92,82,52.56,22.3246241742
399,1262116,Nainpur,IN,22.43,80.12,1599946581,81,87,75.49,3.1988188947
400,175555,Nakonde,ZM,-9.34,32.74,1599946448,22,76,60.8,25.8142447866
401,2090021,Namatanai,PG,-3.67,152.43,1599946582,31,78,82.24,18.566571207000003
402,3347019,Mossamedes,AO,-15.2,12.15,1599946582,62,84,65.5,27.0221903832
403,3421765,Nanortalik,GL,60.14,-45.24,1599946582,2,73,38.82,7.113457402200001
404,1799574,Nanzhang,CN,31.78,111.84,1599946582,96,73,70.74,2.9974946286
405,3115739,Narón,ES,43.52,-8.15,1599946582,29,81,72.0,15.658554030000001
406,3421719,Narsaq,GL,60.92,-46.05,1599946583,12,35,42.8,13.018969207800001
407,3394023,Natal,BR,-5.79,-35.21,1599946583,100,73,77.0,33.531674987100004
408,3430443,Necochea,AR,-38.55,-58.74,1599946384,0,48,59.0,33.5764137129
409,2019309,Neryungri,RU,56.67,124.65,1599946583,100,86,51.93,12.4149964095
410,2155415,New Norfolk,AU,-42.78,147.06,1599946584,12,85,46.0,6.71080887
411,2641598,Newport,GB,51.59,-3.0,1599946584,89,88,57.0,2.2593056529
412,2328952,Nguru,NG,12.88,10.45,1599946584,77,49,85.98,26.3734788591
413,2440485,Niamey,NE,13.51,2.11,1599946584,0,70,86.0,7.5161059344
414,546105,Nikolskoye,RU,59.7,30.79,1599946584,100,76,55.99,35.0304223014
415,1571968,Ninh Binh,VN,20.25,105.97,1599946585,97,90,79.95,4.4067644913
416,286987,Nizwá,OM,22.93,57.53,1599946585,1,27,86.23,4.0488546849
417,5870133,Nome,US,64.5,-165.41,1599946389,90,76,51.8,20.5127057793
418,6089245,Norman Wells,CA,65.28,-126.83,1599946585,75,80,39.2,33.531674987100004
419,5742974,North Bend,US,43.41,-124.22,1599946430,90,82,75.99,15.5019684897
420,2377457,Nouadhibou,MR,20.93,-17.03,1599946585,0,69,82.4,18.007337134500002
421,2139521,Noumea,NC,-22.28,166.46,1599946586,33,64,72.0,15.5019684897
422,3456137,Nova Olímpia,BR,-14.8,-57.29,1599946586,0,13,91.33,7.4489978457
423,3663142,Novo Aripuanã,BR,-5.12,-60.38,1599946586,71,51,86.92,3.3106657092000003
424,1496511,Novy Urengoy,RU,66.08,76.63,1599946586,81,78,52.36,31.1828918826
425,934900,Nsoko,SZ,-27.03,31.95,1599946587,0,82,66.2,5.010737289600001
426,2122605,Okhotsk,RU,59.38,143.3,1599946587,0,60,56.93,11.609699345100001
427,515879,Oktyabr'skiy,RU,54.48,53.47,1599946406,8,90,45.43,4.4515032171
428,2122574,Ola,RU,59.58,151.28,1599946587,0,56,50.88,18.8126341989
429,3414079,Olafsvik,IS,64.89,-23.71,1599946588,100,77,43.36,50.9797780491
430,2396853,Omboué,GA,-1.57,9.26,1599946588,99,79,75.74,19.9758410697
431,2122493,Omsukchan,RU,62.53,155.8,1599946588,0,62,45.66,19.6179312633
432,3354071,Oranjemund,NA,-28.55,16.43,1599946588,57,86,59.14,24.561560464200003
433,3577154,Oranjestad,AW,12.52,-70.03,1599946053,40,70,87.8,28.5209376975
434,803494,Orël-Izumrud,RU,43.46,39.92,1599946589,0,88,70.0,20.020579795499998
435,556268,Ostrovnoy,RU,68.05,39.51,1599946589,100,79,47.32,33.0842877291
436,3353934,Otavi,NA,-19.65,17.33,1599946589,0,25,63.91,16.3520042799
437,6095416,Outlook,CA,51.5,-107.05,1599946589,100,76,47.86,5.2120615557
438,5004792,Owosso,US,43.0,-84.18,1599946443,40,69,75.99,15.5019684897
439,2122293,Ozernovskiy,RU,51.5,156.52,1599946589,100,83,50.81,49.7494630896
440,5380437,Pacific Grove,US,36.62,-121.92,1599946590,6,93,77.0,11.2070508129
441,1633419,Padang,ID,-0.95,100.35,1599946373,93,75,77.81,5.2120615557
442,3694112,Paita,PE,-5.09,-81.11,1599946590,10,77,65.05,37.1778811398
443,1696188,Palauig,PH,15.44,119.9,1599946590,98,74,81.21,9.2161775148
444,1633070,Palembang,ID,-2.92,104.75,1599946590,70,97,72.73,6.9121331361
445,1695546,Pandan,PH,14.05,124.17,1599946591,48,80,79.84,5.0554760154
446,6096551,Pangnirtung,CA,66.15,-65.71,1599946591,41,71,39.18,7.5161059344
447,1495626,Pangody,RU,65.85,74.49,1599946591,69,79,51.82,30.914459527800002
448,3393115,Paracuru,BR,-3.41,-39.03,1599946591,97,77,79.0,38.02791693
449,146209,Paralímni,CY,35.04,33.98,1599946592,40,74,80.6,15.5019684897
450,3841956,Paraná,AR,-31.73,-60.52,1599946384,6,30,73.0,13.399248377100001
451,3662927,Pauini,BR,-7.71,-66.98,1599946592,38,38,93.04,10.714924829100001
452,3495137,Pedernales,DO,18.04,-71.74,1599946592,20,62,87.8,31.0263063423
453,1028918,Pemba,MZ,-12.97,40.52,1599946593,10,88,74.7,33.979062245099996
454,2640377,Penzance,GB,50.12,-5.54,1599946593,86,100,59.0,15.5019684897
455,2264811,Pero Pinheiro,PT,38.86,-9.32,1599946593,100,36,78.8,7.5161059344
456,510911,Pervomayskiy,RU,53.25,40.29,1599946593,0,66,51.24,10.200429482399999
457,2122090,Pevek,RU,69.7,170.31,1599946593,0,81,43.86,11.453113804800001
458,2035453,Pingzhuang,CN,42.04,119.29,1599946593,71,89,54.28,6.7555475958
459,3932145,Pisco,PE,-13.7,-76.22,1599946594,20,82,64.99,20.5127057793
460,3372783,Ponta Delgada,PT,37.73,-25.67,1599946594,75,77,69.8,15.5019684897
461,2264557,Ponta do Sol,PT,32.67,-17.1,1599946594,40,88,69.8,7.605583386
462,506278,Porkhov,RU,57.77,29.56,1599946594,93,71,57.2,25.0089477222
463,964432,Port Alfred,ZA,-33.59,26.89,1599946594,95,52,69.57,22.7272727064
464,1259385,Port Blair,IN,11.67,92.75,1599946595,100,78,81.81,20.266642787400002
465,964420,Port Elizabeth,ZA,-33.92,25.57,1599945822,99,27,73.4,36.0370436319
466,6111862,Port Hardy,CA,50.7,-127.42,1599946595,90,87,57.2,10.513600563
467,6111867,Port Hawkesbury,CA,45.62,-61.35,1599946595,1,48,63.0,20.5127057793
468,2063042,Port Hedland,AU,-20.32,118.57,1599946596,0,68,69.8,18.007337134500002
469,2063036,Port Lincoln,AU,-34.73,135.87,1599946596,0,72,51.08,10.3570150227
470,358619,Port Said,EG,31.26,32.28,1599946596,0,73,81.07,25.4115962544
471,2396518,Port-Gentil,GA,-0.72,8.78,1599946042,90,83,78.8,38.922691445999995
472,2640030,Portlethen,GB,57.05,-2.13,1599946596,100,76,53.6,20.5127057793
473,3452900,Porto Belo,BR,-27.16,-48.55,1599946596,29,83,73.0,18.007337134500002
474,2392087,Porto-Novo,BJ,6.5,2.6,1599946019,75,83,77.0,43.530780203400006
475,8010683,Porto Santo,PT,33.07,-16.34,1599946597,40,73,71.6,2.5053686448000003
476,2138555,Poum,NC,-20.23,164.02,1599946597,3,76,72.59,43.2399784857
477,3374333,Praia,CV,14.92,-23.51,1599946597,100,85,79.21,34.4264495031
478,3372760,Praia da Vitória,PT,38.73,-27.07,1599946597,20,73,71.6,1.9908732981000001
479,1494237,Predivinsk,RU,57.07,93.44,1599946597,92,89,43.32,5.2120615557
480,2295840,Prestea,GH,5.43,-2.14,1599946598,36,96,71.8,7.6950608376
481,6113406,Prince Rupert,CA,54.32,-130.32,1599946598,1,72,60.8,15.5019684897
482,4031574,Provideniya,RU,64.38,-173.3,1599946598,100,69,44.13,31.2723693342
483,3652764,Puerto Ayora,EC,-0.74,-90.35,1599946598,20,57,75.2,49.0336434768
484,3520994,Puerto Escondido,MX,15.85,-97.07,1599946598,90,58,87.8,15.5019684897
485,1692685,Puerto Princesa City,PH,9.74,118.74,1599946599,20,88,77.0,25.5234430689
486,3874787,Punta Arenas,CL,-53.15,-70.92,1599946359,75,70,46.0,28.5209376975
487,503581,Pyaozerskiy,RU,65.83,31.17,1599946599,100,95,49.8,9.5069792325
488,3831208,Qaanaaq,GL,77.48,-69.36,1599946599,100,86,27.34,21.3180028437
489,53157,Qandala,SO,11.47,49.87,1599946599,8,51,88.81,10.4688618372
490,3420846,Qaqortoq,GL,60.72,-46.03,1599946033,6,35,42.8,13.018969207800001
491,3420768,Qasigiannguit,GL,68.82,-51.19,1599946600,29,74,33.8,7.5161059344
492,1797929,Qingdao,CN,36.1,120.37,1599946600,4,93,68.0,5.010737289600001
493,1568770,Quang Ngai,VN,15.12,108.8,1599946447,31,88,75.67,6.71080887
494,1106643,Quatre Cocos,MU,-20.21,57.76,1599946600,20,88,69.8,10.513600563
495,1028434,Quelimane,MZ,-17.88,36.89,1599946600,20,83,73.4,5.010737289600001
496,2538474,Rabat,MA,33.99,-6.84,1599946601,75,83,73.4,15.5019684897
497,5486795,Raton,US,36.9,-104.44,1599946601,1,14,77.0,12.8623836675
498,3146487,Raudeberg,NO,61.99,5.14,1599946601,82,87,51.01,84.1759125927
499,3839307,Rawson,AR,-43.3,-65.1,1599946601,92,34,56.97,48.6981030333
500,3429594,Reconquista,AR,-29.15,-59.65,1599946602,98,93,64.31,19.2600214569
501,3372707,Ribeira Grande,PT,38.52,-28.7,1599946602,20,73,73.4,2.5053686448000003
502,962367,Richards Bay,ZA,-28.78,32.04,1599946602,9,82,67.64,36.6186470673
503,4030556,Rikitea,PF,-23.12,-134.97,1599946602,10,84,73.63,30.869720802000003
504,3838859,Río Gallegos,AR,-51.62,-69.22,1599946603,40,49,48.2,59.055118056
505,5780557,Riverton,US,40.52,-111.94,1599946325,1,12,84.99,16.553328546
506,4723165,Robinsonville,US,31.47,-97.11,1599946554,40,52,88.0,13.018969207800001
507,3440777,Rocha,UY,-34.48,-54.33,1599946052,0,71,49.03,14.0703292641
508,3380450,Roura,GF,4.73,-52.33,1599946603,13,70,84.2,13.018969207800001
509,3670502,Sabanalarga,CO,10.63,-74.92,1599946603,75,94,80.6,10.513600563
510,3520161,Sabancuy,MX,18.97,-91.18,1599946604,100,73,84.87,17.3586256104
511,2349431,Sabla,NG,12.75,4.71,1599946604,38,60,83.79,22.973335698299998
512,118063,Sabzawār,IR,36.21,57.68,1599946404,0,36,62.26,16.911238352399998
513,358620,Safaga,EG,26.73,33.94,1599946021,0,36,89.6,18.409985666700003
514,165060,Safita,SY,34.82,36.12,1599946604,20,78,79.0,10.513600563
515,5044290,Saint Anthony,US,45.02,-93.22,1599946604,90,72,64.4,18.007337134500002
516,5546220,Saint George,US,37.1,-113.58,1599946605,1,9,91.99,7.247673579600001
517,5045360,Saint Paul,US,44.94,-93.09,1599946605,90,72,64.4,18.007337134500002
518,6137462,Saint-Augustin,CA,51.23,-58.65,1599946021,73,46,56.68,25.4115962544
519,2980915,Arrondissement de Saint-Denis,FR,48.92,2.33,1599946605,7,67,64.0,5.010737289600001
520,2980080,Saint-François,FR,46.42,3.91,1599946606,0,59,62.6,2.6619541851
521,3579925,St. George's,GD,12.06,-61.75,1599946606,20,74,86.0,18.007337134500002
522,935215,Saint-Philippe,RE,-21.36,55.77,1599946606,35,68,66.2,13.018969207800001
523,935214,Saint-Pierre,RE,-21.34,55.48,1599946606,5,68,66.2,13.018969207800001
524,286621,Salalah,OM,17.02,54.09,1599946607,40,83,80.6,13.018969207800001
525,164947,Salamiyah,SY,35.01,37.05,1599946607,0,60,72.59,13.2650321997
526,3361934,Saldanha,ZA,-33.01,17.94,1599946479,99,82,62.6,13.018969207800001
527,2132606,Samarai,PG,-10.62,150.67,1599946607,90,75,76.68,21.1166785776
528,1628884,Sampit,ID,-2.53,112.95,1599946607,99,94,74.43,4.2054402252
529,7647007,Bariloche,AR,-41.15,-71.31,1599946327,75,85,37.4,61.538117337900005
530,3628473,San Cristobal,VE,7.77,-72.22,1599946608,40,58,87.8,20.5127057793
531,3628423,San Felipe,VE,10.34,-68.74,1599946608,40,73,81.66,6.3976377894
532,3985168,San Patricio,MX,19.22,-104.7,1599946608,20,74,87.8,25.5234430689
533,3984997,San Quintín,MX,30.48,-115.95,1599946608,0,48,79.11,30.2210092779
534,2017215,Sangar,RU,63.92,127.47,1599946609,100,82,48.49,6.9568718619
535,3904906,Santa Cruz de la Sierra,BO,-17.8,-63.17,1599946576,9,52,89.6,36.0370436319
536,3450083,Santa Maria,BR,-29.68,-53.81,1599946609,89,95,65.34,16.7546528121
537,3388847,São Félix do Xingu,BR,-6.64,-51.99,1599946610,77,24,88.61,5.7489262653
538,3374210,São Filipe,CV,14.9,-24.5,1599946610,100,83,78.39,26.015569052700002
539,3448903,São João da Barra,BR,-21.64,-41.05,1599946610,0,73,77.0,41.0254115586
540,3448455,São Miguel do Araguaia,BR,-13.28,-50.16,1599946611,12,14,84.74,6.0620973459
541,1257277,Sarāhan,IN,31.52,77.8,1599946611,1,62,57.56,6.1515747975
542,696280,Sartana,UA,47.17,37.7,1599946611,0,100,66.0,33.5764137129
543,2017155,Saskylakh,RU,71.92,114.08,1599946611,94,67,44.94,7.9634931924000005
544,2281951,Sassandra,CI,4.95,-6.08,1599946611,96,89,76.03,15.3677523123
545,2638419,Scarborough,GB,54.28,-0.4,1599946612,98,69,59.0,8.94774516
546,7281807,Seddon,AU,-37.81,144.89,1599946612,90,93,54.0,18.007337134500002
547,116406,Semīrom,IR,31.42,51.57,1599946612,9,50,48.43,5.7489262653
548,1835848,Seoul,KR,37.57,126.98,1599946550,1,82,62.6,9.3056549664
549,6144312,Sept-Îles,CA,50.2,-66.38,1599946612,40,66,55.4,20.5127057793
550,2121385,Severo-Kuril'sk,RU,50.68,156.12,1599946613,66,81,50.31,42.993915493799996
551,1492566,Severo-Yeniseyskiy,RU,60.37,93.04,1599946613,32,95,40.5,2.7961703625
552,1218420,Seydi,TM,39.48,62.91,1599946613,0,29,63.82,18.409985666700003
553,2121373,Seymchan,RU,62.88,152.43,1599946613,0,57,48.24,11.4978525306
554,1795632,Shenjiamen,CN,29.96,122.3,1599946541,53,82,73.83,14.316392256
555,494884,Shenkursk,RU,62.11,42.9,1599946613,99,91,47.98,20.4679670535
556,1256523,Shillong,IN,25.57,91.88,1599946614,100,99,62.94,7.3147816683
557,1847947,Shingū,JP,33.73,135.98,1599946614,21,90,75.79,6.7555475958
558,2016680,Shirokiy,RU,49.76,129.52,1599946614,74,89,53.92,6.6660701442
559,409417,Shirvan,AZ,39.95,48.9,1599946614,0,66,73.94,11.9676091515
560,5491487,Silver City,US,32.77,-108.28,1599946614,1,46,73.4,20.5127057793
561,1794209,Simao,CN,22.79,100.97,1599946614,100,96,65.82,2.9974946286
562,1256176,Singarāyakonda,IN,15.25,80.03,1599946615,100,88,77.32,43.486041477600004
563,3380290,Sinnamary,GF,5.38,-52.95,1599946615,1,83,80.71,30.1315318263
564,6148373,Sioux Lookout,CA,50.1,-91.92,1599946615,75,77,59.0,18.007337134500002
565,3419842,Sisimiut,GL,66.94,-53.67,1599946615,45,77,37.76,14.2716535302
566,3139597,Sistranda,NO,63.73,8.83,1599946616,75,71,50.0,33.531674987100004
567,5557293,Sitka,US,57.05,-135.33,1599946616,40,54,59.0,13.018969207800001
568,2134814,Sola,VU,-13.88,167.55,1599946616,75,79,84.2,13.018969207800001
569,2016307,Solnechnyy,RU,50.72,136.63,1599946616,43,76,57.25,2.6619541851
570,3137469,Sørland,NO,67.67,12.69,1599946616,45,74,51.85,60.0393700236
571,1626542,Sorong,ID,-0.88,131.25,1599946616,100,91,77.04,27.4248389154
572,933995,Souillac,MU,-20.52,57.52,1599946617,20,88,69.8,10.513600563
573,2121025,Srednekolymsk,RU,67.45,153.68,1599946617,0,57,48.92,8.0977093698
574,1735799,Sri Aman,MY,1.24,111.46,1599946617,97,100,75.2,2.5501073705999997
575,4447161,Starkville,US,33.45,-88.82,1599946379,75,62,91.4,20.5127057793
576,1490796,Strezhevoy,RU,60.73,77.59,1599946617,99,81,53.6,15.0098425059
577,359796,Suez,EG,29.97,32.53,1599946618,0,78,77.02,21.765390101700003
578,1685422,Sulangan,PH,11.14,123.72,1599946618,46,72,83.88,7.9634931924000005
579,1625908,Sungai Raya,ID,0.7,108.9,1599946618,100,88,76.95,15.815139570300001
580,286245,Sur,OM,22.57,59.53,1599946618,98,52,82.9,9.4622405067
581,5572400,Susanville,US,40.42,-120.65,1599946477,1,10,87.01,9.350393692199999
582,6160603,Swift Current,CA,50.28,-107.8,1599946507,1,45,64.4,13.018969207800001
583,3044774,Székesfehérvár,HU,47.19,18.41,1599946619,10,77,72.0,7.6950608376
584,2439376,Tahoua,NE,14.89,5.27,1599946619,22,66,86.0,5.010737289600001
585,113491,Tākestān,IR,36.07,49.7,1599946619,4,60,68.0,5.010737289600001
586,2294915,Takoradze,GH,4.88,-1.76,1599946040,0,88,75.6,21.4074802953
587,2015686,Talakan,RU,50.32,130.37,1599946619,80,87,54.25,6.509484603900001
588,3691582,Talara,PE,-4.58,-81.27,1599946586,8,81,64.83,36.6186470673
589,2120769,Talaya,RU,61.38,152.75,1599946620,4,62,44.31,14.1150679899
590,1490256,Talnakh,RU,69.49,88.4,1599946620,90,93,48.2,25.0089477222
591,2450173,Taoudenni,ML,22.68,-3.98,1599946620,61,18,99.77,9.2161775148
592,1624725,Tarakan,ID,3.3,117.63,1599946621,100,83,79.29,18.119183949
593,2147381,Taree,AU,-31.9,152.47,1599946621,32,93,55.99,4.9436292009
594,3424607,Tasiilaq,GL,65.61,-37.64,1599946621,100,69,35.6,10.513600563
595,1850523,Tateyama,JP,34.98,139.87,1599946621,75,94,73.4,7.5161059344
596,4033557,Tautira,PF,-17.73,-149.15,1599946621,75,66,84.2,28.5209376975
597,1489828,Teeli,RU,51.03,90.23,1599946622,0,80,35.02,2.1921975642000002
598,1489822,Tegul'det,RU,57.31,88.17,1599946622,2,93,43.0,4.8094130235
599,2449893,Tessalit,ML,20.2,1.01,1599946622,0,12,95.09,15.8598782961
600,1254709,Tezu,IN,27.92,96.17,1599946622,99,83,75.13,4.0935934107000005
601,1337610,Thinadhoo,MV,0.53,72.93,1599946044,32,76,81.97,17.4704724249
602,6165406,Thompson,CA,55.74,-97.86,1599946623,75,70,46.4,18.007337134500002
603,1291193,Thongwa,MM,16.76,96.53,1599946623,40,94,78.8,5.010737289600001
604,2015306,Tiksi,RU,71.69,128.87,1599946623,1,82,43.63,11.6544380709
605,2120591,Tilichiki,RU,60.47,166.1,1599946623,100,81,44.08,71.8951323606
606,2669047,Timrå,SE,62.49,17.33,1599946623,91,93,51.01,5.010737289600001
607,2527087,Tiznit Province,MA,29.58,-9.5,1599946624,100,70,69.93,7.113457402200001
608,1850307,Tochio-honchō,JP,37.47,139.0,1599946624,44,86,75.0,7.0463493135
609,1489508,Toguchin,RU,55.24,84.39,1599946624,0,83,44.35,9.1490694261
610,1489401,Toora-Khem,RU,52.47,96.11,1599946625,90,93,33.44,6.3528990636
611,6167817,Torbay,CA,47.67,-52.73,1599946524,20,54,57.0,36.0370436319
612,3107784,Torrejón de Ardoz,ES,40.46,-3.47,1599946472,2,33,82.0,15.5019684897
613,3386213,Touros,BR,-5.2,-35.46,1599946625,20,73,77.0,36.0370436319
614,1623197,Tual,ID,-5.67,132.75,1599946625,89,80,78.89,48.8770579365
615,2180815,Tuatapere,NZ,-46.13,167.68,1599946626,100,96,46.99,2.2593056529
616,6170031,Tuktoyaktuk,CA,69.45,-133.04,1599946626,90,80,30.2,33.531674987100004
617,480453,Tumbotino,RU,56.0,43.02,1599946626,50,93,48.2,9.9991052163
618,3445942,Tupã,BR,-21.93,-50.51,1599946627,0,18,85.66,15.054581231700002
619,2014836,Tupik,RU,54.43,119.93,1599946627,39,88,47.95,5.0554760154
620,1254046,Tura,IN,25.52,90.22,1599946627,100,97,74.39,8.94774516
621,101312,Turaif,SA,31.67,38.66,1599946627,0,32,84.2,33.531674987100004
622,1163054,Turbat,PK,26.0,63.04,1599946627,100,69,82.09,7.3147816683
623,690960,Turka,UA,49.15,23.03,1599946628,69,89,62.01,15.658554030000001
624,1488903,Turukhansk,RU,65.82,87.98,1599946628,61,91,50.68,24.0246957546
625,2820643,Twistringen,DE,52.8,8.65,1599946628,92,100,55.0,10.513600563
626,2014624,Udachny,RU,66.42,112.4,1599946628,90,93,42.8,5.010737289600001
627,826996,Udarnyy,RU,54.34,42.86,1599946629,44,83,47.53,7.9634931924000005
628,2028462,Ulaanbaatar,MN,47.91,106.88,1599946630,75,80,41.0,9.9991052163
629,2145554,Ulladulla,AU,-35.35,150.47,1599946447,100,67,57.2,10.513600563
630,946257,Ulundi,ZA,-28.34,31.42,1599946630,0,82,60.12,8.0082319182
631,364933,Umm Kaddadah,SD,13.6,26.69,1599946630,1,45,87.21,15.5019684897
632,100926,Umluj,SA,25.02,37.27,1599946523,35,42,91.6,23.264137416
633,3418910,Upernavik,GL,72.79,-56.15,1599946630,57,88,33.62,28.118289165300002
634,3833367,Ushuaia,AR,-54.8,-68.3,1599946501,40,65,44.6,2.5501073705999997
635,4033205,Uturoa,PF,-16.73,-151.43,1599946631,16,76,79.41,24.8747315448
636,204405,Uvira,CD,-3.41,29.15,1599946631,35,51,76.73,3.7580529672
637,1253545,Vaijāpur,IN,19.92,74.73,1599946631,75,86,75.56,17.0678238927
638,4032243,Vaini,TO,-21.2,-175.2,1599946631,40,69,73.4,18.007337134500002
639,3868626,Valparaíso,CL,-33.04,-71.63,1599946632,0,58,68.0,51.5390121216
640,2509835,Valverde del Camino,ES,37.58,-6.75,1599946632,100,45,78.01,2.2593056529
641,1054329,Vangaindrano,MG,-23.35,47.6,1599946632,36,89,69.51,9.9991052163
642,2137773,Vao,NC,-22.67,167.48,1599946632,37,77,68.41,39.1240157121
643,777019,Vardø,NO,70.37,31.11,1599946393,100,83,49.01,18.1639226748
644,3827407,Venustiano Carranza,MX,19.43,-99.1,1599946633,75,40,73.4,15.5019684897
645,2013465,Verkhoyansk,RU,67.54,133.38,1599946633,100,57,51.8,0.35790980640000003
646,3412093,Vestmannaeyjar,IS,63.44,-20.27,1599946633,100,75,49.12,32.771116648500005
647,1819729,Hong Kong,HK,22.29,114.16,1599946562,40,83,80.6,7.5161059344
648,3832899,Viedma,AR,-40.81,-63.0,1599946633,73,27,64.99,26.8208661171
649,7117100,Vila,PT,42.03,-8.16,1599946634,69,55,70.0,11.2070508129
650,3374120,Vila do Maio,CV,15.13,-23.22,1599946634,100,85,80.42,41.3385826392
651,3372472,Vila Franca do Campo,PT,37.72,-25.43,1599946634,75,77,69.8,15.5019684897
652,3445026,Vila Velha,BR,-20.33,-40.29,1599946634,0,78,79.0,38.5200429138
653,6613142,Vincennes,FR,48.85,2.43,1599946634,3,67,64.0,5.010737289600001
654,4791259,Virginia Beach,US,36.85,-75.98,1599946060,75,64,75.2,33.531674987100004
655,178522,Voi,KE,-3.39,38.56,1599946635,10,82,68.79,22.6601646177
656,472878,Vokhtoga,RU,58.81,41.05,1599946635,65,86,51.13,18.4547243925
657,1053507,Vondrozo,MG,-22.82,47.28,1599946635,65,100,59.99,5.4133858218
658,1622318,Waingapu,ID,-9.66,120.26,1599946635,86,83,72.48,12.750536853
659,2206874,Waipawa,NZ,-41.41,175.52,1599946635,6,66,55.4,46.528274832
660,3359638,Walvis Bay,NA,-22.96,14.51,1599946636,4,87,57.0,18.007337134500002
661,5877641,Wasilla,US,61.58,-149.44,1599946636,1,53,54.0,9.864889038900001
662,5014208,Waverly,US,42.74,-84.62,1599946636,75,78,72.0,13.018969207800001
663,2179537,Wellington,NZ,-41.29,174.78,1599946517,7,66,55.4,46.528274832
664,1791539,Wencheng,CN,33.06,113.8,1599946636,94,89,65.68,9.9991052163
665,4845585,Westport,US,41.14,-73.36,1599946248,1,56,69.8,23.0180744241
666,6180285,Whitecourt,CA,54.15,-115.69,1599946637,90,76,48.2,23.0180744241
667,6180550,Whitehorse,CA,60.72,-135.05,1599946637,75,52,44.6,15.5019684897
668,6186122,Wiarton,CA,44.74,-81.13,1599946580,75,72,72.0,23.0180744241
669,1789799,Haining,CN,30.54,120.69,1599946637,42,94,77.0,5.010737289600001
670,1789647,Xichang,CN,27.9,102.26,1599946637,100,82,63.1,6.4647458781000005
671,1788852,Xining,CN,36.62,101.77,1599946638,100,66,55.24,3.0422333544000004
672,3444823,Xique-Xique,BR,-10.82,-42.73,1599946638,0,37,81.7,35.679133825499996
673,584715,Xudat,AZ,41.63,48.68,1599946638,0,77,68.94,5.301539007300001
674,713743,Yakymivka,UA,46.69,35.15,1599946639,0,29,65.57,19.6179312633
675,2013089,Yaroslavskiy,RU,44.17,132.21,1599946639,100,77,53.67,15.3677523123
676,6185377,Yellowknife,CA,62.46,-114.35,1599946622,75,66,48.2,25.5234430689
677,1485997,Yeniseysk,RU,58.45,92.17,1599946639,0,95,43.45,5.4581245476
678,2142316,Yeppoon,AU,-23.13,150.73,1599946639,90,77,64.4,13.018969207800001
679,2012956,Yerbogachën,RU,61.28,108.01,1599946640,0,91,40.03,7.7621689263
680,1786538,Yining,CN,29.04,114.56,1599946640,100,85,68.56,5.0554760154
681,630752,Ylöjärvi,FI,61.56,23.6,1599946640,20,93,54.0,23.0180744241
682,6355222,Yulara,AU,-25.24,130.99,1599946640,54,48,64.4,18.007337134500002
683,1485724,Yurga,RU,55.72,84.89,1599946641,0,86,44.51,8.0977093698
684,607610,Zhangaözen,KZ,43.3,52.8,1599946641,1,32,65.5,6.71080887
685,2012530,Zhigansk,RU,66.77,123.37,1599946641,98,96,44.6,2.2593056529
686,1784178,Zhoucun,CN,36.82,117.82,1599946641,59,90,64.27,4.8541517493
687,462008,Zubtsov,RU,56.18,34.59,1599946642,18,89,49.93,21.161417303400004
